[
  {
    "id": 3,
    "citySlug": "rennes",
    "name": "Racines",
    "adresse": "4 passage Antoinette-Caillot",
    "city": "Rennes",
    "lat": 48.109631,
    "lng": -1.675091,
    "price": "€€€",
    "style": "Cuisine du marché",
    "description": "La cheffe Virginie Giboire propose une partition gastronomique fine et centrée sur le produit local.",
    "stars": "one",
    "visited": true
  },
  {
    "id": 4,
    "citySlug": "rennes",
    "name": "Le Saint-Armel",
    "adresse": "3 place de la Mairie",
    "city": "Rennes",
    "lat": 48.111425,
    "lng": -1.680126,
    "price": "€€",
    "style": "Cuisine traditionnelle",
    "description": "Une table conviviale mettant en avant les classiques de la gastronomie bretonne.",
    "stars": "bib",
    "visited": true
  },
  {
    "id": 5,
    "citySlug": "rennes",
    "name": "Bistrot de la Cité",
    "adresse": "7 rue Saint-Louis",
    "city": "Rennes",
    "lat": 48.114421,
    "lng": -1.681142,
    "price": "€",
    "style": "Bistro",
    "description": "Un lieu authentique pour une cuisine simple, généreuse et accessible.",
    "stars": "none",
    "visited": false
  },
  {
    "id": 6,
    "citySlug": "rennes",
    "name": "Holen",
    "adresse": "2 rue des Carmes",
    "city": "Rennes",
    "lat": 48.108842,
    "lng": -1.677764,
    "price": "€€€",
    "style": "Cuisine végétale et marine",
    "description": "Le chef Tugdual Debéthune travaille les textures et les saveurs avec une grande délicatesse.",
    "stars": "one",
    "visited": false
  },
  {
    "id": 7,
    "citySlug": "rennes",
    "name": "L'Imprévu",
    "adresse": "11 rue Jean-Jaurès",
    "city": "Rennes",
    "lat": 48.110597,
    "lng": -1.675908,
    "price": "€€",
    "style": "Cuisine moderne",
    "description": "Des produits frais travaillés avec créativité dans un cadre élégant.",
    "stars": "none",
    "visited": false
  },
  {
    "id": 8,
    "citySlug": "rennes",
    "name": "Pénates",
    "adresse": "17 rue Paul-Bert",
    "city": "Rennes",
    "lat": 48.111867,
    "lng": -1.670273,
    "price": "€€",
    "style": "Cuisine d'auteur",
    "description": "Une petite adresse qui mise sur la qualité et une carte des vins pointue.",
    "stars": "none",
    "visited": false
  },
  {
    "id": 9,
    "citySlug": "saint-gregoire",
    "name": "Le Saison",
    "adresse": "1 impasse du Vieux-Bourg",
    "city": "Saint-Grégoire",
    "lat": 48.153406,
    "lng": -1.684126,
    "price": "€€€€",
    "style": "Cuisine créative",
    "description": "Une expérience immersive aux portes de Rennes dans un cadre verdoyant.",
    "stars": "one",
    "visited": false
  },
  {
    "id": 10,
    "citySlug": "rennes",
    "name": "Maree",
    "adresse": "5 rue de la Monnaie",
    "city": "Rennes",
    "lat": 48.111082,
    "lng": -1.683073,
    "price": "€€€",
    "style": "Poissons et Crustacés",
    "description": "La mer s'invite en centre-city avec des arrivages quotidiens d'une fraîcheur absolue.",
    "stars": "none",
    "visited": false
  },
  {
    "id": 11,
    "citySlug": "rennes",
    "name": "L'Arsouille",
    "adresse": "17 rue Paul-Bert",
    "city": "Rennes",
    "lat": 48.111867,
    "lng": -1.670273,
    "price": "€€",
    "style": "Bistronomie",
    "description": "Esprit canaille et produits de saison pour ce bistro prisé des Rennais.",
    "stars": "bib",
    "visited": false
  },
  {
    "id": 12,
    "citySlug": "rennes",
    "name": "Berserk",
    "adresse": "10 rue de la Visitation",
    "city": "Rennes",
    "lat": 48.114757,
    "lng": -1.678433,
    "price": "€€€",
    "style": "Cuisine d'instinct",
    "description": "Une approche brute et audacieuse de la gastronomie contemporaine.",
    "stars": "none",
    "visited": false
  },
  {
    "id": 13,
    "citySlug": "rennes",
    "name": "Origines",
    "adresse": "2 rue de l'Hôtel de city",
    "city": "Rennes",
    "lat": 48.111295,
    "lng": -1.680072,
    "price": "€€€",
    "style": "Cuisine moderne",
    "description": "Un cadre historique pour une cuisine qui regarde vers l'avenir.",
    "stars": "none",
    "visited": false
  },
  {
    "id": 14,
    "citySlug": "rennes",
    "name": "Colibri",
    "adresse": "4 rue des Dames",
    "city": "Rennes",
    "lat": 48.111029,
    "lng": -1.682337,
    "price": "€€",
    "style": "Cuisine de saison",
    "description": "Une petite table pleine de charme privilégiant les circuits courts.",
    "stars": "none",
    "visited": false
  },
  {
    "id": 15,
    "citySlug": "rennes",
    "name": "Le Carré",
    "adresse": "34 place des Lices",
    "city": "Rennes",
    "lat": 48.112836,
    "lng": -1.682669,
    "price": "€€€",
    "style": "Brasserie chic",
    "description": "Sur la mythique place des Lices, une cuisine élégante et maîtrisée.",
    "stars": "none",
    "visited": false
  },
  {
    "id": 16,
    "citySlug": "rennes",
    "name": "Le Galopin",
    "adresse": "21 avenue Jean-Janvier",
    "city": "Rennes",
    "lat": 48.106806,
    "lng": -1.673245,
    "price": "€€",
    "style": "Bistro gastronomique",
    "description": "Un accueil chaleureux pour une cuisine sincère et goûteuse.",
    "stars": "bib",
    "visited": false
  },
  {
    "id": 17,
    "citySlug": "rennes",
    "name": "Fuji",
    "adresse": "4 rue Derval",
    "city": "Rennes",
    "lat": 48.114772,
    "lng": -1.674936,
    "price": "€€€",
    "style": "Cuisine japonaise",
    "description": "L'excellence de la tradition japonaise au cœur de la Bretagne.",
    "stars": "none",
    "visited": false
  },
  {
    "id": 18,
    "citySlug": "rennes",
    "name": "La Coquille",
    "adresse": "10 rue de la Quintaine",
    "city": "Rennes",
    "lat": 48.114249,
    "lng": -1.678788,
    "price": "€€",
    "style": "Cuisine de marché",
    "description": "Une adresse de quartier qui sublime les produits des producteurs locaux.",
    "stars": "none",
    "visited": false
  },
  {
    "id": 19,
    "citySlug": "paris",
    "name": "Mắm From Hanoï",
    "adresse": "39 Rue de Cléry",
    "city": "Paris",
    "lat": 48.868676,
    "lng": 2.348365,
    "price": "€€",
    "style": "Cuisine vietnamienne",
    "description": "Une immersion authentique dans les saveurs de Hanoï avec des plats parfumés.",
    "stars": "bib",
    "visited": false
  },
  {
    "id": 20,
    "citySlug": "paris",
    "name": "Le Bistrot des Fables",
    "adresse": "139 Rue Saint-Dominique",
    "city": "Paris",
    "lat": 48.858105,
    "lng": 2.301542,
    "price": "€€",
    "style": "Cuisine française traditionnelle",
    "description": "Un bistrot parisien classique proposant une cuisine généreuse et soignée.",
    "stars": "bib",
    "visited": false
  },
  {
    "id": 21,
    "citySlug": "paris",
    "name": "Le Tire-Bouchon Rodier",
    "adresse": "47 Rue Claude Rodier",
    "city": "Paris",
    "lat": 48.88041,
    "lng": 2.343757,
    "price": "€€",
    "style": "Cuisine de marché",
    "description": "Une petite table de quartier axée sur la fraîcheur des produits saisonniers.",
    "stars": "bib",
    "visited": false
  },
  {
    "id": 22,
    "citySlug": "paris",
    "name": "Capsule",
    "adresse": "2 Rue Cassini",
    "city": "Paris",
    "lat": 48.83683,
    "lng": 2.33816,
    "price": "€€",
    "style": "Bistronomie",
    "description": "Une cuisine moderne et inventive dans un cadre épuré du 14e arrondissement.",
    "stars": "bib",
    "visited": false
  },
  {
    "id": 23,
    "citySlug": "paris",
    "name": "Fana",
    "adresse": "14 Rue Ferdinand Flocon",
    "city": "Paris",
    "lat": 48.891624,
    "lng": 2.346141,
    "price": "€€",
    "style": "Bistro moderne",
    "description": "Une adresse créative menée par des passionnés, mettant le produit au centre.",
    "stars": "bib",
    "visited": false
  },
  {
    "id": 24,
    "citySlug": "paris",
    "name": "Le Cadoret",
    "adresse": "1 Rue Pradier",
    "city": "Paris",
    "lat": 48.874778,
    "lng": 2.381007,
    "price": "€€",
    "style": "Cuisine française",
    "description": "Un restaurant de quartier vivant offrant des plats classiques revisités.",
    "stars": "bib",
    "visited": false
  },
  {
    "id": 25,
    "citySlug": "paris",
    "name": "Lao Siam",
    "adresse": "49 Rue de Bellecity",
    "city": "Paris",
    "lat": 48.873147,
    "lng": 2.380939,
    "price": "€",
    "style": "Thaïlandais et Laotien",
    "description": "Une institution de Bellecity réputée pour ses currys et ses saveurs relevées.",
    "stars": "none",
    "visited": false
  },
  {
    "id": 26,
    "citySlug": "paris",
    "name": "Bouillon Chartier",
    "adresse": "7 rue du Faubourg Montmartre",
    "city": "Paris",
    "lat": 48.871922,
    "lng": 2.34303,
    "price": "€",
    "style": "Bouillon traditionnel",
    "description": "Un lieu historique légendaire pour une cuisine française simple à prix modique.",
    "stars": "none",
    "visited": false
  },
  {
    "id": 27,
    "citySlug": "paris",
    "name": "Le Procope",
    "adresse": "13 Rue de l'Ancienne Comédie",
    "city": "Paris",
    "lat": 48.852991,
    "lng": 2.338798,
    "price": "€€€",
    "style": "Cuisine historique",
    "description": "Le plus ancien café de Paris, servant des spécialités françaises dans un décor chargé d'histoire.",
    "stars": "none",
    "visited": false
  },
  {
    "id": 28,
    "citySlug": "paris",
    "name": "Rosemarie",
    "adresse": "149 Rue de l'Université",
    "city": "Paris",
    "lat": 48.861063,
    "lng": 2.305763,
    "price": "€€",
    "style": "Cuisine de saison",
    "description": "Un bistrot chaleureux proposant des assiettes soignées avec des touches méditerranéennes.",
    "stars": "bib",
    "visited": false
  },
  {
    "id": 29,
    "citySlug": "lyon",
    "name": "Danton",
    "adresse": "8 Rue Danton",
    "city": "Lyon",
    "lat": 45.756012,
    "lng": 4.857249,
    "price": "€€",
    "style": "Cuisine moderne",
    "description": "Une table créative et élégante dans le 3e arrondissement de Lyon.",
    "stars": "bib",
    "visited": false
  },
  {
    "id": 30,
    "citySlug": "lyon",
    "name": "La Meunière",
    "adresse": "11 Rue Neuve",
    "city": "Lyon",
    "lat": 45.7653,
    "lng": 4.835209,
    "price": "€€",
    "style": "Bouchon Lyonnais",
    "description": "Un bouchon traditionnel authentique célèbre pour son ambiance et ses classiques lyonnais.",
    "stars": "none",
    "visited": false
  },
  {
    "id": 31,
    "citySlug": "lyon",
    "name": "Bouillon Baratte",
    "adresse": "25 Rue du Bât d'Argent",
    "city": "Lyon",
    "lat": 45.766226,
    "lng": 4.83731,
    "price": "€€",
    "style": "Brasserie lyonnaise",
    "description": "Une brasserie moderne revisitée au cœur de la presqu'île.",
    "stars": "none",
    "visited": false
  },
  {
    "id": 32,
    "citySlug": "lyon",
    "name": "Frazarin",
    "adresse": "23 Rue de Condé",
    "city": "Lyon",
    "lat": 45.751328,
    "lng": 4.829706,
    "price": "€€",
    "style": "Bistronomie",
    "description": "Une cuisine d'auteur précise et raffinée dans un cadre intime.",
    "stars": "bib",
    "visited": false
  },
  {
    "id": 33,
    "citySlug": "lyon",
    "name": "Accentué",
    "adresse": "97 Rue de Gerland",
    "city": "Lyon",
    "lat": 45.736075,
    "lng": 4.839758,
    "price": "€€",
    "style": "Cuisine aux épices",
    "description": "Un voyage gustatif où les épices subliment des produits locaux de qualité.",
    "stars": "bib",
    "visited": false
  },
  {
    "id": 34,
    "citySlug": "lyon",
    "name": "Veronatuti",
    "adresse": "122 Rue Montesquieu",
    "city": "Lyon",
    "lat": 45.749707,
    "lng": 4.847579,
    "price": "€€",
    "style": "Cuisine italienne régionale",
    "description": "Une exploration des saveurs authentiques des régions d'Italie.",
    "stars": "bib",
    "visited": false
  },
  {
    "id": 35,
    "citySlug": "lyon",
    "name": "Bergamote",
    "adresse": "123 Rue de Gerland",
    "city": "Lyon",
    "lat": 45.734162,
    "lng": 4.839667,
    "price": "€€",
    "style": "Cuisine de saison",
    "description": "Un bistrot épuré proposant une cuisine sincère et respectueuse du produit.",
    "stars": "bib",
    "visited": false
  },
  {
    "id": 36,
    "citySlug": "lyon",
    "name": "Le Zeste Gourmand",
    "adresse": "93 Rue Bossuet",
    "city": "Lyon",
    "lat": 45.768333,
    "lng": 4.855,
    "price": "€€",
    "style": "Cuisine créative",
    "description": "Une adresse réputée pour sa finesse et son accueil chaleureux.",
    "stars": "bib",
    "visited": false
  },
  {
    "id": 37,
    "citySlug": "lyon",
    "name": "Agastache",
    "adresse": "134 Rue Duguesclin",
    "city": "Lyon",
    "lat": 45.766417,
    "lng": 4.847637,
    "price": "€€",
    "style": "Cuisine responsable",
    "description": "Une table engagée offrant des plats végétaux et locaux magnifiés.",
    "stars": "bib",
    "visited": false
  },
  {
    "id": 38,
    "citySlug": "cityurbanne",
    "name": "Café Lobut",
    "adresse": "50 Cours Tolstoï",
    "city": "cityurbanne",
    "lat": 45.763528,
    "lng": 4.874195,
    "price": "€€",
    "style": "Institution lyonnaise",
    "description": "Une institution historique célèbre pour ses classiques de la région lyonnaise.",
    "stars": "none",
    "visited": false
  }
]