[
  {
    "id": 3,
    "citySlug": "rennes",
    "name": "Racines",
    "adresse": "4 passage Antoinette-Caillot",
    "city": "Rennes",
    "lat": 48.109631,
    "lng": -1.675091,
    "price": "€€€",
    "style": "Cuisine du marché",
    "description": "La cheffe Virginie Giboire propose une partition gastronomique fine et centrée sur le produit local.",
    "stars": "one",
    "visited": true
  },
  {
    "id": 4,
    "citySlug": "rennes",
    "name": "Le Saint-Armel",
    "adresse": "3 place de la Mairie",
    "city": "Rennes",
    "lat": 48.111425,
    "lng": -1.680126,
    "price": "€€",
    "style": "Cuisine traditionnelle",
    "description": "Une table conviviale mettant en avant les classiques de la gastronomie bretonne.",
    "stars": "bib",
    "visited": true
  },
  {
    "id": 5,
    "citySlug": "rennes",
    "name": "Bistrot de la Cité",
    "adresse": "7 rue Saint-Louis",
    "city": "Rennes",
    "lat": 48.114421,
    "lng": -1.681142,
    "price": "€",
    "style": "Bistro",
    "description": "Un lieu authentique pour une cuisine simple, généreuse et accessible.",
    "stars": "none",
    "visited": false
  },
  {
    "id": 6,
    "citySlug": "rennes",
    "name": "Holen",
    "adresse": "2 rue des Carmes",
    "city": "Rennes",
    "lat": 48.108842,
    "lng": -1.677764,
    "price": "€€€",
    "style": "Cuisine végétale et marine",
    "description": "Le chef Tugdual Debéthune travaille les textures et les saveurs avec une grande délicatesse.",
    "stars": "one",
    "visited": false
  },
  {
    "id": 7,
    "citySlug": "rennes",
    "name": "L'Imprévu",
    "adresse": "11 rue Jean-Jaurès",
    "city": "Rennes",
    "lat": 48.110597,
    "lng": -1.675908,
    "price": "€€",
    "style": "Cuisine moderne",
    "description": "Des produits frais travaillés avec créativité dans un cadre élégant.",
    "stars": "none",
    "visited": false
  },
  {
    "id": 8,
    "citySlug": "rennes",
    "name": "Pénates",
    "adresse": "17 rue Paul-Bert",
    "city": "Rennes",
    "lat": 48.111867,
    "lng": -1.670273,
    "price": "€€",
    "style": "Cuisine d'auteur",
    "description": "Une petite adresse qui mise sur la qualité et une carte des vins pointue.",
    "stars": "none",
    "visited": false
  },
  {
    "id": 9,
    "citySlug": "saint-gregoire",
    "name": "Le Saison",
    "adresse": "1 impasse du Vieux-Bourg",
    "city": "Saint-Grégoire",
    "lat": 48.153406,
    "lng": -1.684126,
    "price": "€€€€",
    "style": "Cuisine créative",
    "description": "Une expérience immersive aux portes de Rennes dans un cadre verdoyant.",
    "stars": "one",
    "visited": false
  },
  {
    "id": 10,
    "citySlug": "rennes",
    "name": "Maree",
    "adresse": "5 rue de la Monnaie",
    "city": "Rennes",
    "lat": 48.111082,
    "lng": -1.683073,
    "price": "€€€",
    "style": "Poissons et Crustacés",
    "description": "La mer s'invite en centre-city avec des arrivages quotidiens d'une fraîcheur absolue.",
    "stars": "none",
    "visited": false
  },
  {
    "id": 11,
    "citySlug": "rennes",
    "name": "L'Arsouille",
    "adresse": "17 rue Paul-Bert",
    "city": "Rennes",
    "lat": 48.111867,
    "lng": -1.670273,
    "price": "€€",
    "style": "Bistronomie",
    "description": "Esprit canaille et produits de saison pour ce bistro prisé des Rennais.",
    "stars": "bib",
    "visited": false
  },
  {
    "id": 12,
    "citySlug": "rennes",
    "name": "Berserk",
    "adresse": "10 rue de la Visitation",
    "city": "Rennes",
    "lat": 48.114757,
    "lng": -1.678433,
    "price": "€€€",
    "style": "Cuisine d'instinct",
    "description": "Une approche brute et audacieuse de la gastronomie contemporaine.",
    "stars": "none",
    "visited": false
  },
  {
    "id": 13,
    "citySlug": "rennes",
    "name": "Origines",
    "adresse": "2 rue de l'Hôtel de city",
    "city": "Rennes",
    "lat": 48.111295,
    "lng": -1.680072,
    "price": "€€€",
    "style": "Cuisine moderne",
    "description": "Un cadre historique pour une cuisine qui regarde vers l'avenir.",
    "stars": "none",
    "visited": false
  },
  {
    "id": 14,
    "citySlug": "rennes",
    "name": "Colibri",
    "adresse": "4 rue des Dames",
    "city": "Rennes",
    "lat": 48.111029,
    "lng": -1.682337,
    "price": "€€",
    "style": "Cuisine de saison",
    "description": "Une petite table pleine de charme privilégiant les circuits courts.",
    "stars": "none",
    "visited": false
  },
  {
    "id": 15,
    "citySlug": "rennes",
    "name": "Le Carré",
    "adresse": "34 place des Lices",
    "city": "Rennes",
    "lat": 48.112836,
    "lng": -1.682669,
    "price": "€€€",
    "style": "Brasserie chic",
    "description": "Sur la mythique place des Lices, une cuisine élégante et maîtrisée.",
    "stars": "none",
    "visited": false
  },
  {
    "id": 16,
    "citySlug": "rennes",
    "name": "Le Galopin",
    "adresse": "21 avenue Jean-Janvier",
    "city": "Rennes",
    "lat": 48.106806,
    "lng": -1.673245,
    "price": "€€",
    "style": "Bistro gastronomique",
    "description": "Un accueil chaleureux pour une cuisine sincère et goûteuse.",
    "stars": "bib",
    "visited": false
  },
  {
    "id": 17,
    "citySlug": "rennes",
    "name": "Fuji",
    "adresse": "4 rue Derval",
    "city": "Rennes",
    "lat": 48.114772,
    "lng": -1.674936,
    "price": "€€€",
    "style": "Cuisine japonaise",
    "description": "L'excellence de la tradition japonaise au cœur de la Bretagne.",
    "stars": "none",
    "visited": false
  },
  {
    "id": 18,
    "citySlug": "rennes",
    "name": "La Coquille",
    "adresse": "10 rue de la Quintaine",
    "city": "Rennes",
    "lat": 48.114249,
    "lng": -1.678788,
    "price": "€€",
    "style": "Cuisine de marché",
    "description": "Une adresse de quartier qui sublime les produits des producteurs locaux.",
    "stars": "none",
    "visited": false
  },
  {
    "id": 19,
    "citySlug": "paris",
    "name": "Mắm From Hanoï",
    "adresse": "39 Rue de Cléry",
    "city": "Paris",
    "lat": 48.868676,
    "lng": 2.348365,
    "price": "€€",
    "style": "Cuisine vietnamienne",
    "description": "Une immersion authentique dans les saveurs de Hanoï avec des plats parfumés.",
    "stars": "bib",
    "visited": false
  },
  {
    "id": 20,
    "citySlug": "paris",
    "name": "Le Bistrot des Fables",
    "adresse": "139 Rue Saint-Dominique",
    "city": "Paris",
    "lat": 48.858105,
    "lng": 2.301542,
    "price": "€€",
    "style": "Cuisine française traditionnelle",
    "description": "Un bistrot parisien classique proposant une cuisine généreuse et soignée.",
    "stars": "bib",
    "visited": false
  },
  {
    "id": 21,
    "citySlug": "paris",
    "name": "Le Tire-Bouchon Rodier",
    "adresse": "47 Rue Claude Rodier",
    "city": "Paris",
    "lat": 48.88041,
    "lng": 2.343757,
    "price": "€€",
    "style": "Cuisine de marché",
    "description": "Une petite table de quartier axée sur la fraîcheur des produits saisonniers.",
    "stars": "bib",
    "visited": false
  },
  {
    "id": 22,
    "citySlug": "paris",
    "name": "Capsule",
    "adresse": "2 Rue Cassini",
    "city": "Paris",
    "lat": 48.83683,
    "lng": 2.33816,
    "price": "€€",
    "style": "Bistronomie",
    "description": "Une cuisine moderne et inventive dans un cadre épuré du 14e arrondissement.",
    "stars": "bib",
    "visited": false
  },
  {
    "id": 23,
    "citySlug": "paris",
    "name": "Fana",
    "adresse": "14 Rue Ferdinand Flocon",
    "city": "Paris",
    "lat": 48.891624,
    "lng": 2.346141,
    "price": "€€",
    "style": "Bistro moderne",
    "description": "Une adresse créative menée par des passionnés, mettant le produit au centre.",
    "stars": "bib",
    "visited": false
  },
  {
    "id": 24,
    "citySlug": "paris",
    "name": "Le Cadoret",
    "adresse": "1 Rue Pradier",
    "city": "Paris",
    "lat": 48.874778,
    "lng": 2.381007,
    "price": "€€",
    "style": "Cuisine française",
    "description": "Un restaurant de quartier vivant offrant des plats classiques revisités.",
    "stars": "bib",
    "visited": false
  },
  {
    "id": 25,
    "citySlug": "paris",
    "name": "Lao Siam",
    "adresse": "49 Rue de Bellecity",
    "city": "Paris",
    "lat": 48.873147,
    "lng": 2.380939,
    "price": "€",
    "style": "Thaïlandais et Laotien",
    "description": "Une institution de Bellecity réputée pour ses currys et ses saveurs relevées.",
    "stars": "none",
    "visited": false
  },
  {
    "id": 26,
    "citySlug": "paris",
    "name": "Bouillon Chartier",
    "adresse": "7 rue du Faubourg Montmartre",
    "city": "Paris",
    "lat": 48.871922,
    "lng": 2.34303,
    "price": "€",
    "style": "Bouillon traditionnel",
    "description": "Un lieu historique légendaire pour une cuisine française simple à prix modique.",
    "stars": "none",
    "visited": false
  },
  {
    "id": 27,
    "citySlug": "paris",
    "name": "Le Procope",
    "adresse": "13 Rue de l'Ancienne Comédie",
    "city": "Paris",
    "lat": 48.852991,
    "lng": 2.338798,
    "price": "€€€",
    "style": "Cuisine historique",
    "description": "Le plus ancien café de Paris, servant des spécialités françaises dans un décor chargé d'histoire.",
    "stars": "none",
    "visited": false
  },
  {
    "id": 28,
    "citySlug": "paris",
    "name": "Rosemarie",
    "adresse": "149 Rue de l'Université",
    "city": "Paris",
    "lat": 48.861063,
    "lng": 2.305763,
    "price": "€€",
    "style": "Cuisine de saison",
    "description": "Un bistrot chaleureux proposant des assiettes soignées avec des touches méditerranéennes.",
    "stars": "bib",
    "visited": false
  },
  {
    "id": 29,
    "citySlug": "lyon",
    "name": "Danton",
    "adresse": "8 Rue Danton",
    "city": "Lyon",
    "lat": 45.756012,
    "lng": 4.857249,
    "price": "€€",
    "style": "Cuisine moderne",
    "description": "Une table créative et élégante dans le 3e arrondissement de Lyon.",
    "stars": "bib",
    "visited": false
  },
  {
    "id": 30,
    "citySlug": "lyon",
    "name": "La Meunière",
    "adresse": "11 Rue Neuve",
    "city": "Lyon",
    "lat": 45.7653,
    "lng": 4.835209,
    "price": "€€",
    "style": "Bouchon Lyonnais",
    "description": "Un bouchon traditionnel authentique célèbre pour son ambiance et ses classiques lyonnais.",
    "stars": "none",
    "visited": false
  },
  {
    "id": 31,
    "citySlug": "lyon",
    "name": "Bouillon Baratte",
    "adresse": "25 Rue du Bât d'Argent",
    "city": "Lyon",
    "lat": 45.766226,
    "lng": 4.83731,
    "price": "€€",
    "style": "Brasserie lyonnaise",
    "description": "Une brasserie moderne revisitée au cœur de la presqu'île.",
    "stars": "none",
    "visited": false
  },
  {
    "id": 32,
    "citySlug": "lyon",
    "name": "Frazarin",
    "adresse": "23 Rue de Condé",
    "city": "Lyon",
    "lat": 45.751328,
    "lng": 4.829706,
    "price": "€€",
    "style": "Bistronomie",
    "description": "Une cuisine d'auteur précise et raffinée dans un cadre intime.",
    "stars": "bib",
    "visited": false
  },
  {
    "id": 33,
    "citySlug": "lyon",
    "name": "Accentué",
    "adresse": "97 Rue de Gerland",
    "city": "Lyon",
    "lat": 45.736075,
    "lng": 4.839758,
    "price": "€€",
    "style": "Cuisine aux épices",
    "description": "Un voyage gustatif où les épices subliment des produits locaux de qualité.",
    "stars": "bib",
    "visited": false
  },
  {
    "id": 34,
    "citySlug": "lyon",
    "name": "Veronatuti",
    "adresse": "122 Rue Montesquieu",
    "city": "Lyon",
    "lat": 45.749707,
    "lng": 4.847579,
    "price": "€€",
    "style": "Cuisine italienne régionale",
    "description": "Une exploration des saveurs authentiques des régions d'Italie.",
    "stars": "bib",
    "visited": false
  },
  {
    "id": 35,
    "citySlug": "lyon",
    "name": "Bergamote",
    "adresse": "123 Rue de Gerland",
    "city": "Lyon",
    "lat": 45.734162,
    "lng": 4.839667,
    "price": "€€",
    "style": "Cuisine de saison",
    "description": "Un bistrot épuré proposant une cuisine sincère et respectueuse du produit.",
    "stars": "bib",
    "visited": false
  },
  {
    "id": 36,
    "citySlug": "lyon",
    "name": "Le Zeste Gourmand",
    "adresse": "93 Rue Bossuet",
    "city": "Lyon",
    "lat": 45.768333,
    "lng": 4.855,
    "price": "€€",
    "style": "Cuisine créative",
    "description": "Une adresse réputée pour sa finesse et son accueil chaleureux.",
    "stars": "bib",
    "visited": false
  },
  {
    "id": 37,
    "citySlug": "lyon",
    "name": "Agastache",
    "adresse": "134 Rue Duguesclin",
    "city": "Lyon",
    "lat": 45.766417,
    "lng": 4.847637,
    "price": "€€",
    "style": "Cuisine responsable",
    "description": "Une table engagée offrant des plats végétaux et locaux magnifiés.",
    "stars": "bib",
    "visited": false
  },
  {
    "id": 38,
    "citySlug": "cityurbanne",
    "name": "Café Lobut",
    "adresse": "50 Cours Tolstoï",
    "city": "cityurbanne",
    "lat": 45.763528,
    "lng": 4.874195,
    "price": "€€",
    "style": "Institution lyonnaise",
    "description": "Une institution historique célèbre pour ses classiques de la région lyonnaise.",
    "stars": "none",
    "visited": false
  },
  {
    "id": 39,
    "citySlug": "paris",
    "name": "Plénitude",
    "adresse": "8 Quai du Louvre",
    "city": "Paris",
    "lat": 48.8585,
    "lng": 2.3412,
    "price": "€€€€",
    "style": "Gastronomique",
    "description": "Arnaud Donckele orchestre une symphonie de sauces et d'essences rares.",
    "stars": "three",
    "visited": false
  },
  {
    "id": 40,
    "citySlug": "paris",
    "name": "L'Ambroisie",
    "adresse": "9 Place des Vosges",
    "city": "Paris",
    "lat": 48.8553,
    "lng": 2.3655,
    "price": "€€€€",
    "style": "Classique français",
    "description": "L'excellence du classicisme français dans un cadre historique somptueux.",
    "stars": "three",
    "visited": false
  },
  {
    "id": 41,
    "citySlug": "paris",
    "name": "Arpège",
    "adresse": "84 Rue de Varenne",
    "city": "Paris",
    "lat": 48.8551,
    "lng": 2.3175,
    "price": "€€€€",
    "style": "Cuisine légumière",
    "description": "Alain Passard sublime les légumes de ses propres potagers.",
    "stars": "three",
    "visited": false
  },
  {
    "id": 42,
    "citySlug": "paris",
    "name": "Kei",
    "adresse": "5 Rue Coq Héron",
    "city": "Paris",
    "lat": 48.8637,
    "lng": 2.3421,
    "price": "€€€€",
    "style": "Franco-Japonais",
    "description": "Une fusion parfaite entre rigueur japonaise et saveurs françaises.",
    "stars": "three",
    "visited": false
  },
  {
    "id": 43,
    "citySlug": "paris",
    "name": "Le Pré Catelan",
    "adresse": "Route de Suresnes",
    "city": "Paris",
    "lat": 48.8641,
    "lng": 2.2534,
    "price": "€€€€",
    "style": "Gastronomique",
    "description": "Frédéric Anton propose une cuisine d'une précision graphique absolue.",
    "stars": "three",
    "visited": false
  },
  {
    "id": 44,
    "citySlug": "paris",
    "name": "Table - Bruno Verjus",
    "adresse": "3 Rue de Prague",
    "city": "Paris",
    "lat": 48.8497,
    "lng": 2.3756,
    "price": "€€€€",
    "style": "Cuisine de produit",
    "description": "Une célébration brute et luxueuse des meilleurs ingrédients de saison.",
    "stars": "two",
    "visited": false
  },
  {
    "id": 45,
    "citySlug": "paris",
    "name": "Le Meurice Alain Ducasse",
    "adresse": "228 Rue de Rivoli",
    "city": "Paris",
    "lat": 48.8651,
    "lng": 2.3282,
    "price": "€€€€",
    "style": "Haute Gastronomie",
    "description": "La quintessence de la cuisine française dans un décor inspiré du Petit Trianon.",
    "stars": "two",
    "visited": false
  },
  {
    "id": 46,
    "citySlug": "paris",
    "name": "Sur Mesure par Thierry Marx",
    "adresse": "251 Rue Saint-Honoré",
    "city": "Paris",
    "lat": 48.8669,
    "lng": 2.3253,
    "price": "€€€€",
    "style": "Cuisine moléculaire",
    "description": "Une expérience sensorielle et technologique dans un cocon blanc.",
    "stars": "two",
    "visited": false
  },
  {
    "id": 47,
    "citySlug": "paris",
    "name": "Marsan par Hélène Darroze",
    "adresse": "4 Rue d'Assas",
    "city": "Paris",
    "lat": 48.8517,
    "lng": 2.3276,
    "price": "€€€€",
    "style": "Cuisine du Sud-Ouest",
    "description": "Un hommage vibrant aux racines landaises de la cheffe.",
    "stars": "two",
    "visited": false
  },
  {
    "id": 48,
    "citySlug": "paris",
    "name": "Le Grand Restaurant",
    "adresse": "7 Rue d'Aguesseau",
    "city": "Paris",
    "lat": 48.8711,
    "lng": 2.3208,
    "price": "€€€€",
    "style": "Cuisine d'auteur",
    "description": "Jean-François Piège explore des techniques de cuisson innovantes.",
    "stars": "two",
    "visited": false
  },
  {
    "id": 49,
    "citySlug": "lyon",
    "name": "Paul Bocuse",
    "adresse": "40 Rue de la Plage, Collonges-au-Mont-d'Or",
    "city": "Lyon",
    "lat": 45.8163,
    "lng": 4.8471,
    "price": "€€€€",
    "style": "Cuisine Classique",
    "description": "Le temple historique de la gastronomie française mondiale.",
    "stars": "two",
    "visited": false
  },
  {
    "id": 50,
    "citySlug": "lyon",
    "name": "Takao Takano",
    "adresse": "33 Rue Malesherbes",
    "city": "Lyon",
    "lat": 45.7674,
    "lng": 4.8459,
    "price": "€€€€",
    "style": "Moderne",
    "description": "Épure et précision nippone au service du terroir lyonnais.",
    "stars": "two",
    "visited": false
  },
  {
    "id": 51,
    "citySlug": "lyon",
    "name": "Le Neuvième Art",
    "adresse": "173 Rue Cuvier",
    "city": "Lyon",
    "lat": 45.7661,
    "lng": 4.8569,
    "price": "€€€€",
    "style": "Créative",
    "description": "Christophe Roure propose une cuisine technique, colorée et surprenante.",
    "stars": "two",
    "visited": false
  },
  {
    "id": 52,
    "citySlug": "lyon",
    "name": "Mère Brazier",
    "adresse": "12 Rue Royale",
    "city": "Lyon",
    "lat": 45.7699,
    "lng": 4.8369,
    "price": "€€€€",
    "style": "Gastronomique Lyonnais",
    "description": "Une institution sublimée par le talent de Mathieu Viannay.",
    "stars": "two",
    "visited": false
  },
  {
    "id": 53,
    "citySlug": "lyon",
    "name": "Têtedoie",
    "adresse": "4 Montée du Chemin Neuf",
    "city": "Lyon",
    "lat": 45.7584,
    "lng": 4.8219,
    "price": "€€€€",
    "style": "Gastronomique",
    "description": "Une vue panoramique sur Lyon pour une cuisine d'exception.",
    "stars": "one",
    "visited": false
  },
  {
    "id": 54,
    "citySlug": "toulouse",
    "name": "Le Py-R",
    "adresse": "19 Descente de la Halle aux Poissons",
    "city": "Toulouse",
    "lat": 43.6001,
    "lng": 1.4447,
    "price": "€€€€",
    "style": "Cuisine moderne",
    "description": "Le chef Pierre Lambinon propose une aventure sensorielle audacieuse.",
    "stars": "two",
    "visited": false
  },
  {
    "id": 55,
    "citySlug": "toulouse",
    "name": "Michel Sarran",
    "adresse": "21 Boulevard Armand Duportal",
    "city": "Toulouse",
    "lat": 43.6063,
    "lng": 1.4345,
    "price": "€€€€",
    "style": "Gastronomique",
    "description": "Une cuisine d'émotion et de partage au cœur de la ville rose.",
    "stars": "two",
    "visited": false
  },
  {
    "id": 56,
    "citySlug": "toulouse",
    "name": "Une Table à Deux",
    "adresse": "10 Rue de la Pleau",
    "city": "Toulouse",
    "lat": 43.5969,
    "lng": 1.4468,
    "price": "€€",
    "style": "Bistronomie",
    "description": "Un duo passionné pour une cuisine créative et abordable.",
    "stars": "bib",
    "visited": false
  },
  {
    "id": 57,
    "citySlug": "toulouse",
    "name": "Hédone",
    "adresse": "2 Impasse de la Trésorerie",
    "city": "Toulouse",
    "lat": 43.5975,
    "lng": 1.4498,
    "price": "€€€€",
    "style": "Cuisine d'instinct",
    "description": "Une table confidentielle centrée sur la pureté du produit.",
    "stars": "one",
    "visited": false
  },
  {
    "id": 58,
    "citySlug": "toulouse",
    "name": "Les Jardins de l'Opéra",
    "adresse": "1 Place du Capitole",
    "city": "Toulouse",
    "lat": 43.6044,
    "lng": 1.4440,
    "price": "€€€",
    "style": "Gastronomique",
    "description": "Stéphane Tournié revisite les classiques dans un cadre majestueux.",
    "stars": "one",
    "visited": false
  },
  {
    "id": 59,
    "citySlug": "toulouse",
    "name": "Le Cénacle",
    "adresse": "46 Rue des Couteliers",
    "city": "Toulouse",
    "lat": 43.5998,
    "lng": 1.4422,
    "price": "€€€",
    "style": "Gastronomique",
    "description": "Cuisine élégante dans une demeure du XVIe siècle avec cheminée monumentale.",
    "stars": "one",
    "visited": false
  },
  {
    "id": 60,
    "citySlug": "toulouse",
    "name": "Sept",
    "adresse": "7 Place Saint-Sernin",
    "city": "Toulouse",
    "lat": 43.6083,
    "lng": 1.4418,
    "price": "€€€",
    "style": "Moderne",
    "description": "Guillaume Momboisse bouscule les codes face à la basilique.",
    "stars": "one",
    "visited": false
  },
  {
    "id": 61,
    "citySlug": "toulouse",
    "name": "Le Bibent",
    "adresse": "5 Place du Capitole",
    "city": "Toulouse",
    "lat": 43.6042,
    "lng": 1.4431,
    "price": "€€€",
    "style": "Brasserie chic",
    "description": "Décoration baroque et cuisine de terroir sous l'impulsion de grands chefs.",
    "stars": "none",
    "visited": false
  },
  {
    "id": 62,
    "citySlug": "toulouse",
    "name": "Solides",
    "adresse": "38 Rue des Polinaires",
    "city": "Toulouse",
    "lat": 43.5978,
    "lng": 1.4449,
    "price": "€€",
    "style": "Bistronomie",
    "description": "Une cuisine franche et généreuse dans le quartier des Carmes.",
    "stars": "none",
    "visited": false
  },
  {
    "id": 63,
    "citySlug": "toulouse",
    "name": "Bouche",
    "adresse": "36 Rue de la Colombette",
    "city": "Toulouse",
    "lat": 43.6059,
    "lng": 1.4533,
    "price": "€€",
    "style": "Cuisine vivante",
    "description": "Petites assiettes à partager et vins naturels.",
    "stars": "none",
    "visited": false
  },
  {
    "id": 64,
    "citySlug": "toulouse",
    "name": "Campagne",
    "adresse": "35 Rue de la Colombette",
    "city": "Toulouse",
    "lat": 43.6058,
    "lng": 1.4531,
    "price": "€€",
    "style": "Rustique moderne",
    "description": "Le goût du vrai et des circuits courts dans une ambiance décontractée.",
    "stars": "none",
    "visited": false
  },
  {
    "id": 65,
    "citySlug": "toulouse",
    "name": "Carthel",
    "adresse": "42 Avenue des États-Unis",
    "city": "Toulouse",
    "lat": 43.6268,
    "lng": 1.4355,
    "price": "€€",
    "style": "Cuisine de marché",
    "description": "Une adresse créative qui fait bouger le quartier Nord.",
    "stars": "none",
    "visited": false
  },
  {
    "id": 66,
    "citySlug": "toulouse",
    "name": "Ma Biche sur le Toit",
    "adresse": "4-8 Rue de l'Hôtel de Ville",
    "city": "Toulouse",
    "lat": 43.6033,
    "lng": 1.4475,
    "price": "€€€",
    "style": "Moderne",
    "description": "Restaurant en rooftop avec vue imprenable sur les toits toulousains.",
    "stars": "none",
    "visited": false
  },
  {
    "id": 67,
    "citySlug": "toulouse",
    "name": "Émile",
    "adresse": "13 Place Saint-Georges",
    "city": "Toulouse",
    "lat": 43.6025,
    "lng": 1.4489,
    "price": "€€€",
    "style": "Traditionnel",
    "description": "Le spécialiste du cassoulet toulousain depuis des générations.",
    "stars": "none",
    "visited": false
  },
  {
    "id": 68,
    "citySlug": "toulouse",
    "name": "Balthazar",
    "adresse": "50 Rue des Couteliers",
    "city": "Toulouse",
    "lat": 43.5995,
    "lng": 1.4420,
    "price": "€€",
    "style": "Bistrot",
    "description": "Ambiance conviviale et cuisine de saison soignée.",
    "stars": "none",
    "visited": false
  },
  {
    "id": 69,
    "citySlug": "toulouse",
    "name": "L'Alimentation",
    "adresse": "3 Bis Rue Maurice Fonvieille",
    "city": "Toulouse",
    "lat": 43.6038,
    "lng": 1.4491,
    "price": "€€",
    "style": "Foodstore & Restaurant",
    "description": "Concept original mêlant épicerie fine et plats canailles.",
    "stars": "none",
    "visited": false
  },
  {
    "id": 70,
    "citySlug": "toulouse",
    "name": "La Pente Douce",
    "adresse": "6 Rue de la Concorde",
    "city": "Toulouse",
    "lat": 43.6125,
    "lng": 1.4435,
    "price": "€€",
    "style": "Cuisine métissée",
    "description": "Hamid Miss propose une cuisine voyageuse et généreuse.",
    "stars": "none",
    "visited": false
  },
  {
    "id": 71,
    "citySlug": "toulouse",
    "name": "Le Genty Magre",
    "adresse": "3 Rue Genty Magre",
    "city": "Toulouse",
    "lat": 43.6019,
    "lng": 1.4452,
    "price": "€€€",
    "style": "Gastronomie régionale",
    "description": "Une institution pour les amateurs de produits du Sud-Ouest.",
    "stars": "none",
    "visited": false
  },
  {
    "id": 72,
    "citySlug": "toulouse",
    "name": "Au Pois Gourmand",
    "adresse": "3 Rue Émile Heybrard",
    "city": "Toulouse",
    "lat": 43.6195,
    "lng": 1.4088,
    "price": "€€€",
    "style": "Gastronomique",
    "description": "Une belle bâtisse coloniale en bord de Garonne.",
    "stars": "none",
    "visited": false
  },
  {
    "id": 73,
    "citySlug": "toulouse",
    "name": "Crêperie du Taur",
    "adresse": "46 Rue du Taur",
    "city": "Toulouse",
    "lat": 43.6069,
    "lng": 1.4428,
    "price": "€",
    "style": "Crêperie",
    "description": "Galettes authentiques à deux pas de Saint-Sernin.",
    "stars": "none",
    "visited": false
  },
  {
    "id": 74,
    "citySlug": "alencon",
    "name": "Le Gourmet Alençonnais",
    "adresse": "7 rue Saint-Blaise",
    "city": "Alençon",
    "lat": 48.4315,
    "lng": -0.1205,
    "price": "€€€",
    "style": "Cuisine traditionnelle normande",
    "description": "Table emblématique d'Alençon avec produits de qualité et service attentionné.",
    "stars": "one",
    "visited": false
  },
  {
    "id": 75,
    "citySlug": "alencon",
    "name": "L'Entre-Temps",
    "adresse": "1 rue Desgenettes",
    "city": "Alençon",
    "lat": 48.4345,
    "lng": -0.1165,
    "price": "€€",
    "style": "Bistro convivial",
    "description": "Un petit bistro chaleureux proposant une cuisine sincère et généreuse.",
    "stars": "none",
    "visited": false
  },
  {
    "id": 76,
    "citySlug": "chartres",
    "name": "L'Esprit Gourmand",
    "adresse": "5 rue de la Chocolaterie",
    "city": "Chartres",
    "lat": 48.4465,
    "lng": 1.4915,
    "price": "€€€",
    "style": "Gastronomie moderne",
    "description": "Une cuisine inventive magnifiquement présentée avec vue sur la cathédrale.",
    "stars": "one",
    "visited": false
  },
  {
    "id": 77,
    "citySlug": "chartres",
    "name": "Le Temps Perdu",
    "adresse": "2 rue de la Cathédrale",
    "city": "Chartres",
    "lat": 48.4480,
    "lng": 1.4920,
    "price": "€€",
    "style": "Cuisine locale",
    "description": "Spécialités chartaines dans un cadre authentique près de la cathédrale.",
    "stars": "bib",
    "visited": false
  },
  {
    "id": 78,
    "citySlug": "dreux",
    "name": "La Table de Dreux",
    "adresse": "19 rue Charlemagne",
    "city": "Dreux",
    "lat": 48.7418,
    "lng": 1.3680,
    "price": "€€€",
    "style": "Cuisine fine",
    "description": "Cuisine raffinée dans un cadre élégant au cœur de Dreux.",
    "stars": "one",
    "visited": false
  },
  {
    "id": 79,
    "citySlug": "dreux",
    "name": "Le Petit Chef",
    "adresse": "12 avenue du Général Leclerc",
    "city": "Dreux",
    "lat": 48.7455,
    "lng": 1.3640,
    "price": "€€",
    "style": "Bistronomie",
    "description": "Petite adresse sympathique pour une cuisine de qualité sans prétention.",
    "stars": "none",
    "visited": false
  },
  {
    "id": 80,
    "citySlug": "orleans",
    "name": "La Dariole",
    "adresse": "273 Rue de Bourgogne",
    "city": "Orléans",
    "lat": 47.9015,
    "lng": 1.9100,
    "price": "€€€",
    "style": "Gastronomie classique",
    "description": "Table réputée mettant en avant les produits de la Loire avec élégance.",
    "stars": "one",
    "visited": false
  },
  {
    "id": 81,
    "citySlug": "orleans",
    "name": "Le Bignet",
    "adresse": "3 Rue de Turenne",
    "city": "Orléans",
    "lat": 47.9045,
    "lng": 1.9080,
    "price": "€€",
    "style": "Cuisine traditionnelle",
    "description": "Petite adresse charmante pour une cuisine généreuse et chaleureuse.",
    "stars": "none",
    "visited": false
  },
  {
    "id": 82,
    "citySlug": "auxerre",
    "name": "La Petite Auberge",
    "adresse": "8 Place de l'Eglise",
    "city": "Auxerre",
    "lat": 47.8040,
    "lng": 3.5710,
    "price": "€€€",
    "style": "Cuisine bourguignonne",
    "description": "Cadre historique et cuisine traditionnelle en plein cœur d'Auxerre.",
    "stars": "one",
    "visited": false
  },
  {
    "id": 83,
    "citySlug": "auxerre",
    "name": "L'Épicerie",
    "adresse": "12 Rue de l'Harpe",
    "city": "Auxerre",
    "lat": 47.8025,
    "lng": 3.5720,
    "price": "€€",
    "style": "Bistro cosy",
    "description": "Petite adresse sympathique avec une belle sélection de vins de Bourgogne.",
    "stars": "none",
    "visited": false
  },
  {
    "id": 84,
    "citySlug": "dijon",
    "name": "Le Gourmet Dijonnais",
    "adresse": "5 Rue Thierry",
    "city": "Dijon",
    "lat": 47.3245,
    "lng": 5.0420,
    "price": "€€€",
    "style": "Gastronomie bourguignonne",
    "description": "Cuisine raffinée dans un cadre bourgeois élégant avec belle cave à vins.",
    "stars": "one",
    "visited": false
  },
  {
    "id": 85,
    "citySlug": "dijon",
    "name": "Le Citron Bleu",
    "adresse": "30 Rue Pasteur",
    "city": "Dijon",
    "lat": 47.3210,
    "lng": 5.0380,
    "price": "€€",
    "style": "Cuisine créative",
    "description": "Petite table moderne proposant une interprétation personnelle de la cuisine française.",
    "stars": "none",
    "visited": false
  },
  {
    "id": 86,
    "citySlug": "macon",
    "name": "Le Poisson d'Argent",
    "adresse": "39 Rue Carnot",
    "city": "Mâcon",
    "lat": 46.3070,
    "lng": 4.8260,
    "price": "€€€",
    "style": "Cuisine de rivière",
    "description": "Spécialités des eaux douces dans un cadre chaleureux en bord de Saône.",
    "stars": "one",
    "visited": false
  },
  {
    "id": 87,
    "citySlug": "macon",
    "name": "Le Beaujolais",
    "adresse": "5 Rue Franche",
    "city": "Mâcon",
    "lat": 46.3045,
    "lng": 4.8270,
    "price": "€€",
    "style": "Cuisine régionale",
    "description": "Ambiance conviviale et cuisine régionale avec excellente sélection de vins locaux.",
    "stars": "none",
    "visited": false
  },
  {
    "id": 88,
    "citySlug": "poitiers",
    "name": "La Patte d'Oie",
    "adresse": "15 Rue Thiers",
    "city": "Poitiers",
    "lat": 46.5820,
    "lng": 0.3420,
    "price": "€€€",
    "style": "Gastronomie poitevine",
    "description": "Cuisine poitevine traditionnelle dans un décor rustique typique.",
    "stars": "one",
    "visited": false
  },
  {
    "id": 89,
    "citySlug": "poitiers",
    "name": "Le Petit Jardin",
    "adresse": "8 Rue de Montmorency",
    "city": "Poitiers",
    "lat": 46.5785,
    "lng": 0.3400,
    "price": "€€",
    "style": "Cuisine familiale",
    "description": "Petite table sympathique proposant une cuisine généreuse et sincère.",
    "stars": "none",
    "visited": false
  },
  {
    "id": 90,
    "citySlug": "angers",
    "name": "Le Ciel Bleu",
    "adresse": "29 Rue Garnier",
    "city": "Angers",
    "lat": 47.4720,
    "lng": -0.5490,
    "price": "€€€",
    "style": "Gastronomie contemporaine",
    "description": "Cuisine moderne et éclairée avec vue sur la Maine depuis la terrasse.",
    "stars": "one",
    "visited": false
  },
  {
    "id": 91,
    "citySlug": "angers",
    "name": "La Table des Jacobins",
    "adresse": "4 Rue Lenepveu",
    "city": "Angers",
    "lat": 47.4685,
    "lng": -0.5520,
    "price": "€€",
    "style": "Bistro régional",
    "description": "Petite adresse chaleureuse avec spécialités angevines et vins de Loire.",
    "stars": "none",
    "visited": false
  },
  {
    "id": 92,
    "citySlug": "limoges",
    "name": "Le Périgourdien",
    "adresse": "7 Rue François Chénieux",
    "city": "Limoges",
    "lat": 45.8350,
    "lng": 1.2600,
    "price": "€€€",
    "style": "Cuisine périgourdine",
    "description": "Cuisine du Périgord avec produits nobles servie dans un cadre intime.",
    "stars": "one",
    "visited": false
  },
  {
    "id": 93,
    "citySlug": "limoges",
    "name": "L'Annexe",
    "adresse": "28 Rue de la Boucherie",
    "city": "Limoges",
    "lat": 45.8340,
    "lng": 1.2620,
    "price": "€€",
    "style": "Bistro gastronomique",
    "description": "Petite table accueillante proposant une cuisine de marché de qualité.",
    "stars": "none",
    "visited": false
  },
  {
    "id": 94,
    "citySlug": "brive-la-gaillarde",
    "name": "La Courtépée",
    "adresse": "37 Boulevard de Lattre-de-Tassigny",
    "city": "Brive-la-Gaillarde",
    "lat": 45.1550,
    "lng": 1.5270,
    "price": "€€€",
    "style": "Gastronomie corrézienne",
    "description": "Cuisine du terroir corrézien servie avec générosité et chaleur.",
    "stars": "one",
    "visited": false
  },
  {
    "id": 95,
    "citySlug": "brive-la-gaillarde",
    "name": "Le Relais",
    "adresse": "12 Rue François Arago",
    "city": "Brive-la-Gaillarde",
    "lat": 45.1520,
    "lng": 1.5290,
    "price": "€€",
    "style": "Cuisine de famille",
    "description": "Adresse conviviale pour une cuisine simple et authentique.",
    "stars": "none",
    "visited": false
  },
  {
    "id": 96,
    "citySlug": "saint-etienne",
    "name": "La Terrasse du Ciel",
    "adresse": "15 Avenue Denfert-Rochereau",
    "city": "Saint-Étienne",
    "lat": 45.4415,
    "lng": 4.3920,
    "price": "€€€",
    "style": "Gastronomie stéphanoise",
    "description": "Cuisine raffinée avec vue panoramique sur la ville depuis la terrasse.",
    "stars": "one",
    "visited": false
  },
  {
    "id": 97,
    "citySlug": "saint-etienne",
    "name": "Le Centinoble",
    "adresse": "5 Rue Claude Tisseur",
    "city": "Saint-Étienne",
    "lat": 45.4390,
    "lng": 4.3900,
    "price": "€€",
    "style": "Bistro chaleureux",
    "description": "Petite table accueillante avec spécialités régionales et vins de la Loire.",
    "stars": "none",
    "visited": false
  },
  {
    "id": 98,
    "citySlug": "clermont-ferrand",
    "name": "Gérard Fonteyne",
    "adresse": "56 Rue Saint-Esprit",
    "city": "Clermont-Ferrand",
    "lat": 45.7790,
    "lng": 3.0885,
    "price": "€€€",
    "style": "Gastronomie auvergnate",
    "description": "Cuisine d'Auvergne contemporaine servie avec élégance et rigueur.",
    "stars": "one",
    "visited": false
  },
  {
    "id": 99,
    "citySlug": "clermont-ferrand",
    "name": "La Treille",
    "adresse": "14 Rue Saint-Jean",
    "city": "Clermont-Ferrand",
    "lat": 45.7765,
    "lng": 3.0870,
    "price": "€€",
    "style": "Cuisine régionale",
    "description": "Ambiance chaleureuse et cuisine auvergnate généreuse.",
    "stars": "none",
    "visited": false
  },
  {
    "id": 100,
    "citySlug": "le-puy-en-velay",
    "name": "Le Coin Gourmand",
    "adresse": "3 Rue de la Gonesse",
    "city": "Le Puy-en-Velay",
    "lat": 45.0455,
    "lng": 3.8860,
    "price": "€€€",
    "style": "Gastronomie vellave",
    "description": "Cuisine du Velay avec produits locaux de qualité dans une ambiance conviviale.",
    "stars": "one",
    "visited": false
  },
  {
    "id": 101,
    "citySlug": "le-puy-en-velay",
    "name": "Chez Michèle",
    "adresse": "8 Rue Chevalerie",
    "city": "Le Puy-en-Velay",
    "lat": 45.0435,
    "lng": 3.8880,
    "price": "€€",
    "style": "Cuisine de marché",
    "description": "Petite table familiale proposant une cuisine maison de qualité.",
    "stars": "none",
    "visited": false
  }
]

















